{"currentTime":1588200053171,"userMessage":"request success.","apiroute":"/airports","responsePayload":[{"code":"ABR","name":"Aberdeen Regional","city":"Aberdeen","state":"SD","latitude":"45.4490556","longitude":"-98.4218333","precheck":"1"},{"code":"ABI","name":"Abilene Regional","city":"Abilene","state":"TX","latitude":"32.4113056","longitude":"-99.6818889","precheck":"0"},{"code":"ADK","name":"Adak Naval Air Station","city":"Adak","state":"AK","latitude":"51.8779639","longitude":"-176.6460306","precheck":"0"},{"code":"BQN","name":"Rafael Hernandez","city":"Aguadilla","state":"PR","latitude":"18.4948611","longitude":"-67.1294444","precheck":"0"},{"code":"ALS","name":"San Luis Valley/Bergman Field","city":"Alamosa","state":"CO","latitude":"37.4349167","longitude":"-105.8665556","precheck":"0"},{"code":"ABY","name":"Southwest Georgia Regional","city":"Albany","state":"GA","latitude":"31.535515","longitude":"-84.1944733","precheck":"1"},{"code":"ALB","name":"Albany County","city":"Albany","state":"NY","latitude":"42.7491111","longitude":"-73.8019722","precheck":"1"},{"code":"ABQ","name":"Albuquerque International Sunport","city":"Albuquerque","state":"NM","latitude":"35.0496","longitude":"-106.617","precheck":"1"},{"code":"TYS","name":"McGhee Tyson","city":"Alcoa","state":"TN","latitude":"35.8109722","longitude":"-83.9940278","precheck":"1"},{"code":"AEX","name":"Alexandria International","city":"Alexandria","state":"LA","latitude":"31.32309","longitude":"-92.54186","precheck":"0"},{"code":"ESF","name":"Alexandria Esler Regional","city":"Alexandria","state":"LA","latitude":"31.39097","longitude":"-92.29692","precheck":"0"},{"code":"ABE","name":"Lehigh Valley International","city":"Allentown","state":"PA","latitude":"40.65222","longitude":"-75.44028","precheck":"1"},{"code":"AIA","name":"Alliance Municipal","city":"Alliance","state":"NE","latitude":"42.0532222","longitude":"-102.8037778","precheck":"0"},{"code":"APN","name":"Alpena County Regional","city":"Alpena","state":"MI","latitude":"45.0780675","longitude":"-83.5602858","precheck":"0"},{"code":"AMA","name":"Amarillo International","city":"Amarillo","state":"TX","latitude":"35.2193611","longitude":"-101.7059167","precheck":"1"},{"code":"ANC","name":"Anchorage International","city":"Anchorage","state":"AK","latitude":"61.1735","longitude":"-149.98115","precheck":"1"},{"code":"ATW","name":"Outagamie County","city":"Appleton","state":"WI","latitude":"44.2580833","longitude":"-88.5190833","precheck":"1"},{"code":"ASE","name":"Aspen Pitkin County Sardy Field","city":"Aspen","state":"CO","latitude":"39.2231667","longitude":"-106.8688611","precheck":"1"},{"code":"AHN","name":"Athens/ Ben Epps","city":"Athens","state":"GA","latitude":"33.9485953","longitude":"-83.3263469","precheck":"0"},{"code":"ATL","name":"Hartsfield-Jackson Atlanta International","city":"Atlanta","state":"GA","latitude":"33.63985","longitude":"-84.4439","precheck":"1"},{"code":"ACY","name":"Atlantic City International","city":"Atlantic City","state":"NJ","latitude":"39.4575833","longitude":"-74.5771667","precheck":"0"},{"code":"AGS","name":"Augusta Regional","city":"Augusta","state":"GA","latitude":"33.3699444","longitude":"-81.9645","precheck":"0"},{"code":"AUG","name":"Augusta State","city":"Augusta","state":"ME","latitude":"44.3206497","longitude":"-69.7973181","precheck":"1"},{"code":"AUS","name":"Austin-Bergstrom International","city":"Austin","state":"TX","latitude":"30.202568","longitude":"-97.66808","precheck":"1"},{"code":"AVP","name":"Wilkes Barre/Scranton International","city":"Avoca","state":"PA","latitude":"41.3384722","longitude":"-75.7233889","precheck":"1"},{"code":"BFL","name":"Meadows Field, Bakersfield","city":"Bakersfield","state":"CA","latitude":"35.4338611","longitude":"-119.0576667","precheck":"0"},{"code":"BGR","name":"Bangor International","city":"Bangor","state":"ME","latitude":"44.8074444","longitude":"-68.8281389","precheck":"1"},{"code":"BRW","name":"Wiley Post - Will Rogers Memorial","city":"Barrow","state":"AK","latitude":"71.2854475","longitude":"-156.7660019","precheck":"0"},{"code":"BTR","name":"Baton Rouge Metropolitan","city":"Baton Rouge","state":"LA","latitude":"30.53279","longitude":"-91.15659","precheck":"1"},{"code":"BPT","name":"Jefferson County","city":"Beaumont","state":"TX","latitude":"29.9508333","longitude":"-94.0206944","precheck":"0"},{"code":"BKW","name":"Raleigh County Memorial","city":"Beaver","state":"WV","latitude":"37.7873265","longitude":"-81.1241643","precheck":"0"},{"code":"BED","name":"Hanscom Field","city":"Bedford","state":"MA","latitude":"42.4699531","longitude":"-71.28903","precheck":"0"},{"code":"BZN","name":"Gallatin Field","city":"Belgrade","state":"MT","latitude":"45.77596","longitude":"-111.1582","precheck":"1"},{"code":"BLI","name":"Bellingham International","city":"Bellingham","state":"WA","latitude":"48.7926944","longitude":"-122.5375278","precheck":"1"},{"code":"BJI","name":"Bemidji City-County","city":"Bemidji","state":"MN","latitude":"47.5107222","longitude":"-94.9347222","precheck":"0"},{"code":"BET","name":"Bethel","city":"Bethel","state":"AK","latitude":"60.7797778","longitude":"-161.838","precheck":"0"},{"code":"BIL","name":"Billings Logan","city":"Billings","state":"MT","latitude":"45.8035","longitude":"-108.53709","precheck":"1"},{"code":"BHM","name":"Birmingham-Shuttlesworth International","city":"Birmingham","state":"AL","latitude":"33.5613","longitude":"-86.7529","precheck":"1"},{"code":"BIS","name":"Bismarck Municipal","city":"Bismarck","state":"ND","latitude":"46.7727222","longitude":"-100.74575","precheck":"1"},{"code":"BMG","name":"Monroe County","city":"Bloomington","state":"IN","latitude":"39.146111","longitude":"-86.616667","precheck":"0"},{"code":"BMI","name":"Bloomington-Normal","city":"Bloomington","state":"IL","latitude":"40.4771111","longitude":"-88.9159167","precheck":"0"},{"code":"TRI","name":"Tri Cities Regional","city":"Blountville","state":"TN","latitude":"36.4752222","longitude":"-82.4074167","precheck":"0"},{"code":"BLF","name":"Mercer County Airport","city":"Bluefield","state":"WV","latitude":"37.29583","longitude":"-81.20777","precheck":"0"},{"code":"BOI","name":"Boise Air Terminal/Gowen Field","city":"Boise","state":"ID","latitude":"43.5643611","longitude":"-116.2228611","precheck":"1"},{"code":"BOS","name":"Logan International","city":"Boston","state":"MA","latitude":"42.36657","longitude":"-71.01696","precheck":"1"},{"code":"BWG","name":"Bowling Green - Warren County Regional","city":"Bowling Green","state":"KY","latitude":"36.964444","longitude":"-86.419722","precheck":"0"},{"code":"BRD","name":"Brainerd Lakes Regional","city":"Brainerd","state":"MN","latitude":"46.40175","longitude":"-94.1355556","precheck":"1"},{"code":"BBG","name":"Branson Airport","city":"Branson","state":"MO","latitude":"36.5392","longitude":"-93.1989","precheck":"0"},{"code":"BKG","name":"Branson Airport","city":"Branson","state":"MO","latitude":"36.5392","longitude":"-93.1989","precheck":"0"},{"code":"CKB","name":"Benedun","city":"Bridgeport","state":"WV","latitude":"39.2966389","longitude":"-80.2280833","precheck":"1"},{"code":"BRO","name":"Brownsville/South Padre International","city":"Brownsville","state":"TX","latitude":"25.9068333","longitude":"-97.4258333","precheck":"1"},{"code":"BQK","name":"Brunswick Golden Isles Airport","city":"Brunswick","state":"GA","latitude":"31.2590344","longitude":"-81.4663156","precheck":"0"},{"code":"IFP","name":"Laughlin/Bullhead International","city":"Bullhead City","state":"AZ","latitude":"35.1559722","longitude":"-114.5594444","precheck":"0"},{"code":"BUR","name":"Burbank Bob Hope Airport","city":"Burbank","state":"CA","latitude":"34.2006667","longitude":"-118.3586667","precheck":"1"},{"code":"BRL","name":"Southeast Iowa Regional","city":"Burlington","state":"IA","latitude":"40.783225","longitude":"-91.1255056","precheck":"0"},{"code":"BTM","name":"Bert Mooney","city":"Butte","state":"MT","latitude":"45.9548056","longitude":"-112.4974722","precheck":"0"},{"code":"BWI","name":"Baltimore-Washington International","city":"BWI Airport","state":"MD","latitude":"39.17688","longitude":"-76.67002","precheck":"1"},{"code":"CMX","name":"Houghton County Memorial","city":"Calumet","state":"MI","latitude":"47.1684172","longitude":"-88.4890608","precheck":"0"},{"code":"CGI","name":"Cape Girardeau Regional","city":"Cape Girardeau","state":"MO","latitude":"37.2268","longitude":"-89.5638","precheck":"1"},{"code":"CRQ","name":"McClellan-Palomar","city":"Carlsbad","state":"CA","latitude":"33.12825","longitude":"-117.2800833","precheck":"0"},{"code":"CPR","name":"Natrona County International","city":"Casper","state":"WY","latitude":"42.90049","longitude":"-106.4598","precheck":"1"},{"code":"CDC","name":"Cedar City Municipal","city":"Cedar City","state":"UT","latitude":"37.7009664","longitude":"-113.0988458","precheck":"0"},{"code":"CID","name":"Eastern Iowa","city":"Cedar Rapids","state":"IA","latitude":"41.88942","longitude":"-91.70033","precheck":"1"},{"code":"CDR","name":"Chadron Municipal","city":"Chadron","state":"NE","latitude":"42.8375556","longitude":"-103.0954167","precheck":"0"},{"code":"CHS","name":"Charleston International Airport","city":"Charleston","state":"SC","latitude":"32.8986389","longitude":"-80.0405278","precheck":"1"},{"code":"CRW","name":"Yeager","city":"Charleston","state":"WV","latitude":"38.3731389","longitude":"-81.5931944","precheck":"1"},{"code":"CLT","name":"Charlotte Douglas International","city":"Charlotte","state":"NC","latitude":"35.22073","longitude":"-80.94396","precheck":"1"},{"code":"CHA","name":"Chattanooga Metropolitan","city":"Chattanooga","state":"TN","latitude":"35.0351944","longitude":"-85.2035556","precheck":"0"},{"code":"BUF","name":"Greater Buffalo","city":"Cheektowaga","state":"NY","latitude":"42.9405247","longitude":"-78.7321667","precheck":"1"},{"code":"CYS","name":"Cheyenne Regional","city":"Cheyenne","state":"WY","latitude":"41.1556389","longitude":"-104.8104722","precheck":"0"},{"code":"MDW","name":"Chicago Midway","city":"Chicago","state":"IL","latitude":"41.78811","longitude":"-87.74122","precheck":"1"},{"code":"ORD","name":"Chicago-O'Hare International","city":"Chicago","state":"IL","latitude":"41.976172","longitude":"-87.903266","precheck":"1"},{"code":"CIC","name":"Chico Municipal","city":"Chico","state":"CA","latitude":"39.7953889","longitude":"-121.8584167","precheck":"0"},{"code":"CEF","name":"Westover Metropolitan","city":"Chicopee","state":"MA","latitude":"42.1940139","longitude":"-72.5347833","precheck":"0"},{"code":"STX","name":"Henry E. Rohlsen","city":"Christiansted","state":"VI","latitude":"17.7015558","longitude":"-64.8017219","precheck":"1"},{"code":"PIE","name":"St Petersburg-Clearwater International","city":"Clearwater","state":"FL","latitude":"27.91","longitude":"-82.6874167","precheck":"1"},{"code":"CLE","name":"Cleveland Hopkins International","city":"Cleveland","state":"OH","latitude":"41.4094167","longitude":"-81.8549804","precheck":"1"},{"code":"COD","name":"Yellowstone Regional","city":"Cody","state":"WY","latitude":"44.5201944","longitude":"-109.0238056","precheck":"0"},{"code":"CLL","name":"Easterwood Field","city":"College Station","state":"TX","latitude":"30.5885833","longitude":"-96.3638333","precheck":"0"},{"code":"COS","name":"Colorado Springs Municipal","city":"Colorado Springs","state":"CO","latitude":"38.7974","longitude":"-104.7009","precheck":"1"},{"code":"COU","name":"Columbia Regional","city":"Columbia","state":"MO","latitude":"38.8171","longitude":"-92.2223","precheck":"0"},{"code":"CMH","name":"John Glenn Columbus International","city":"Columbus","state":"OH","latitude":"39.998527556403","longitude":"-82.889491910822","precheck":"1"},{"code":"CSG","name":"Columbus Airport","city":"Columbus","state":"GA","latitude":"32.5163333","longitude":"-84.9388611","precheck":"0"},{"code":"GTR","name":"Golden Triangle Regional","city":"Columbus","state":"MS","latitude":"33.4503333","longitude":"-88.5913611","precheck":"1"},{"code":"LCK","name":"Rickenbacker International","city":"Columbus","state":"OH","latitude":"39.8137858","longitude":"-82.9278226","precheck":"1"},{"code":"JQF","name":"Concord Regional Airport","city":"Concord","state":"NC","latitude":"35.38587","longitude":"-80.71409","precheck":"0"},{"code":"CDV","name":"Merle K. \"Mudhole\" Smith","city":"Cordova","state":"AK","latitude":"60.4917778","longitude":"-145.4775556","precheck":"0"},{"code":"CRP","name":"Corpus Christi","city":"Corpus Christi","state":"TX","latitude":"27.7703611","longitude":"-97.5012222","precheck":"1"},{"code":"CEZ","name":"Cortez Municipal","city":"Cortez","state":"CO","latitude":"37.303","longitude":"-108.6280556","precheck":"0"},{"code":"CEC","name":"Crescent City","city":"Crescent City","state":"CA","latitude":"41.7801667","longitude":"-124.2365278","precheck":"0"},{"code":"DAL","name":"Dallas Love Field","city":"Dallas","state":"TX","latitude":"32.8471111","longitude":"-96.8517778","precheck":"1"},{"code":"DFW","name":"Dallas/Fort Worth International","city":"Dallas","state":"TX","latitude":"32.896615","longitude":"-97.0377","precheck":"1"},{"code":"GDV","name":"Dawson Community","city":"Dawson County","state":"MT","latitude":"47.1387187","longitude":"-104.8071977","precheck":"1"},{"code":"DAY","name":"James M. Cox Dayton International","city":"Dayton","state":"OH","latitude":"39.9023758","longitude":"-84.2193751","precheck":"1"},{"code":"DAB","name":"Daytona Beach International","city":"Daytona Beach","state":"FL","latitude":"29.1799167","longitude":"-81.0580556","precheck":"1"},{"code":"DEC","name":"Decatur","city":"Decatur","state":"IL","latitude":"39.8345625","longitude":"-88.8656892","precheck":"0"},{"code":"DRT","name":"Del Rio International","city":"Del Rio","state":"TX","latitude":"29.3742069","longitude":"-100.9271569","precheck":"0"},{"code":"DEN","name":"Denver International","city":"Denver","state":"CO","latitude":"39.8494","longitude":"-104.67372","precheck":"1"},{"code":"DSM","name":"Des Moines International","city":"Des Moines","state":"IA","latitude":"41.5326","longitude":"-93.6486","precheck":"1"},{"code":"DTW","name":"Detroit Metropolitan Wayne County","city":"Detroit","state":"MI","latitude":"42.2124444","longitude":"-83.3533889","precheck":"1"},{"code":"DVL","name":"Devils Lake Municipal","city":"Devils Lake","state":"ND","latitude":"48.1145833","longitude":"-98.9083333","precheck":"0"},{"code":"ART","name":"Watertown International","city":"Dexter","state":"NY","latitude":"43.9919222","longitude":"-76.0217386","precheck":"0"},{"code":"DIK","name":"Dickinson Regional","city":"Dickinson","state":"ND","latitude":"46.802","longitude":"-102.7925","precheck":"0"},{"code":"DLG","name":"Dillingham","city":"Dillingham","state":"AK","latitude":"59.0446667","longitude":"-158.5055","precheck":"0"},{"code":"DDC","name":"Dodge City Regional","city":"Dodge City","state":"KS","latitude":"37.7631217","longitude":"-99.9654241","precheck":"0"},{"code":"DHN","name":"Dothan Regional","city":"Dothan","state":"AL","latitude":"31.3151","longitude":"-85.4486","precheck":"0"},{"code":"DBQ","name":"Dubuque Regional","city":"Dubuque","state":"IA","latitude":"42.402","longitude":"-90.7094722","precheck":"0"},{"code":"DLH","name":"Duluth International","city":"Duluth","state":"MN","latitude":"46.8420833","longitude":"-92.1936389","precheck":"0"},{"code":"DRO","name":"Durango-La Plata County","city":"Durango","state":"CO","latitude":"37.1515167","longitude":"-107.7537692","precheck":"0"},{"code":"EGE","name":"Eagle County Regional","city":"Eagle","state":"CO","latitude":"39.6414802","longitude":"-106.9174962","precheck":"0"},{"code":"CHO","name":"Charlottesville-Albemarle","city":"Earlysville","state":"VA","latitude":"38.1386389","longitude":"-78.4528611","precheck":"0"},{"code":"EAT","name":"Pangborn Memorial","city":"East Wenatchee","state":"WA","latitude":"47.3980892","longitude":"-120.2057374","precheck":"0"},{"code":"EAU","name":"Chippewa Valley Regional","city":"Eau Claire","state":"WI","latitude":"44.8658045","longitude":"-91.4842552","precheck":"1"},{"code":"VPS","name":"Okaloosa County Air Terminal","city":"Eglin Air Force Base","state":"FL","latitude":"30.4833333","longitude":"-86.5253333","precheck":"0"},{"code":"ELD","name":"South Arkansas Regional","city":"El Dorado","state":"AR","latitude":"33.2209722","longitude":"-92.8132778","precheck":"0"},{"code":"ELP","name":"El Paso International","city":"El Paso","state":"TX","latitude":"31.80725","longitude":"-106.3775556","precheck":"1"},{"code":"EKO","name":"Elko Municipal","city":"Elko","state":"NV","latitude":"40.8249167","longitude":"-115.7916944","precheck":"0"},{"code":"ELY","name":"Ely Airport","city":"Ely","state":"NV","latitude":"39.300999","longitude":"-114.841394","precheck":"0"},{"code":"ERI","name":"Erie International","city":"Erie","state":"PA","latitude":"42.0820214","longitude":"-80.1762156","precheck":"0"},{"code":"ESC","name":"Delta County","city":"Escanaba","state":"MI","latitude":"45.7226667","longitude":"-87.0937222","precheck":"0"},{"code":"EUG","name":"Mahlon Sweet Field","city":"Eugene","state":"OR","latitude":"44.1245833","longitude":"-123.2119722","precheck":"1"},{"code":"EVV","name":"Evansville Regional","city":"Evansville","state":"IN","latitude":"38.0369963","longitude":"-87.532365","precheck":"0"},{"code":"TTN","name":"Trenton-Mercer Airport","city":"Ewing","state":"NJ","latitude":"40.27666","longitude":"-74.81333","precheck":"0"},{"code":"FAI","name":"Fairbanks International","city":"Fairbanks","state":"AK","latitude":"64.8154917","longitude":"-147.8585528","precheck":"0"},{"code":"DUJ","name":"Dubois-Jefferson County","city":"Falls Creek","state":"PA","latitude":"41.1782778","longitude":"-78.8986944","precheck":"0"},{"code":"FAR","name":"Hector International","city":"Fargo","state":"ND","latitude":"46.92065","longitude":"-96.8157639","precheck":"1"},{"code":"FMN","name":"Four Corners Regional","city":"Farmington","state":"NM","latitude":"36.74125","longitude":"-108.2299444","precheck":"0"},{"code":"FAY","name":"Fayetteville Regional","city":"Fayetteville","state":"NC","latitude":"34.9912222","longitude":"-78.8802778","precheck":"0"},{"code":"FLG","name":"Flagstaff Pulliam","city":"Flagstaff","state":"AZ","latitude":"35.1403056","longitude":"-111.66925","precheck":"0"},{"code":"AVL","name":"Asheville Regional","city":"Fletcher","state":"NC","latitude":"35.4361944","longitude":"-82.5418056","precheck":"1"},{"code":"FNT","name":"Bishop International","city":"Flint","state":"MI","latitude":"42.9654167","longitude":"-83.7436667","precheck":"1"},{"code":"FLO","name":"Florence Regional","city":"Florence","state":"SC","latitude":"34.1853611","longitude":"-79.7238889","precheck":"1"},{"code":"FOD","name":"Fort Dodge Municipal","city":"Fort Dodge","state":"IA","latitude":"42.5511994","longitude":"-94.1918403","precheck":"0"},{"code":"FLL","name":"Ft. Lauderdale-Hollywood International","city":"Fort Lauderdale","state":"FL","latitude":"26.0725833","longitude":"-80.15275","precheck":"1"},{"code":"RSW","name":"Southwest Florida International","city":"Fort Myers","state":"FL","latitude":"26.5361667","longitude":"-81.7551667","precheck":"1"},{"code":"FKL","name":"Venango Regional","city":"Franklin","state":"PA","latitude":"41.3778736","longitude":"-79.8603617","precheck":"0"},{"code":"MBS","name":"MBS International","city":"Freeland","state":"MI","latitude":"43.5329167","longitude":"-84.0796389","precheck":"1"},{"code":"FAT","name":"Fresno Yosemite International","city":"Fresno","state":"CA","latitude":"36.7761944","longitude":"-119.7181389","precheck":"1"},{"code":"FSM","name":"Fort Smith Regional","city":"Ft Smith","state":"AR","latitude":"35.34061","longitude":"-94.35864","precheck":"1"},{"code":"TBN","name":"Waynesville St. Robert Regional Forney Field","city":"Ft. Leonard Wood","state":"MO","latitude":"37.7329","longitude":"-92.137","precheck":"0"},{"code":"FWA","name":"Ft. Wayne Municipal","city":"Ft. Wayne","state":"IN","latitude":"40.9784722","longitude":"-85.1951667","precheck":"1"},{"code":"GNV","name":"Gainesville Regional","city":"Gainesville","state":"FL","latitude":"29.6900556","longitude":"-82.2717778","precheck":"1"},{"code":"GUP","name":"Gallup Municipal Airport","city":"Gallup","state":"NM","latitude":"35.5159","longitude":"-108.78038","precheck":"0"},{"code":"GCK","name":"Garden City Municipal","city":"Garden City","state":"KS","latitude":"37.9275278","longitude":"-100.7244167","precheck":"0"},{"code":"GYY","name":"Gary Regional","city":"Gary","state":"IN","latitude":"41.6162778","longitude":"-87.4127778","precheck":"0"},{"code":"BFF","name":"Scottsbluff County","city":"Gering","state":"NE","latitude":"41.8740278","longitude":"-103.5956389","precheck":"0"},{"code":"GCC","name":"Gillette-Campbell County","city":"Gillette","state":"WY","latitude":"44.3489167","longitude":"-105.5393611","precheck":"0"},{"code":"GGW","name":"Glasgow Intl / Wokal Field","city":"Glasgow","state":"MT","latitude":"48.2125","longitude":"-106.6147222","precheck":"1"},{"code":"GFK","name":"Grand Forks International","city":"Grand Forks","state":"ND","latitude":"47.9472756","longitude":"-97.1736397","precheck":"1"},{"code":"GRI","name":"Central Nebraska Regional","city":"Grand Island","state":"NE","latitude":"40.9752","longitude":"-98.3185","precheck":"1"},{"code":"GJT","name":"Grand Junction Regional","city":"Grand Junction","state":"CO","latitude":"39.1224125","longitude":"-108.5267347","precheck":"1"},{"code":"GRR","name":"Kent County International","city":"Grand Rapids","state":"MI","latitude":"42.8808333","longitude":"-85.5228056","precheck":"1"},{"code":"GBD","name":"Great Bend Municipal","city":"Great Bend","state":"KS","latitude":"38.34425","longitude":"-98.8591944","precheck":"0"},{"code":"GTF","name":"Great Falls International","city":"Great Falls","state":"MT","latitude":"47.4826539","longitude":"-111.37061","precheck":"0"},{"code":"GRB","name":"Austin Straubel Field","city":"Green Bay","state":"WI","latitude":"44.4846389","longitude":"-88.1297222","precheck":"1"},{"code":"GSO","name":"Piedmont Triad International","city":"Greensboro","state":"NC","latitude":"36.09775","longitude":"-79.9373056","precheck":"1"},{"code":"GLH","name":"Greenville Municipal","city":"Greenville","state":"MS","latitude":"33.4828811","longitude":"-90.9856139","precheck":"0"},{"code":"PGV","name":"Pitt-Greenville","city":"Greenville","state":"NC","latitude":"35.63525","longitude":"-77.3853056","precheck":"0"},{"code":"GSP","name":"Greenville-Spartanburg International","city":"Greer","state":"SC","latitude":"34.8956667","longitude":"-82.2188611","precheck":"1"},{"code":"GON","name":"Groton-New London","city":"Groton","state":"CT","latitude":"41.3338","longitude":"-72.0472","precheck":"0"},{"code":"GPT","name":"Gulfport Bilox Regional","city":"Gulfport","state":"MS","latitude":"30.4072688","longitude":"-89.0700968","precheck":"1"},{"code":"GUC","name":"Gunnison County","city":"Gunnison","state":"CO","latitude":"38.5339444","longitude":"-106.9330278","precheck":"0"},{"code":"GST","name":"Gustavus","city":"Gustavus","state":"AK","latitude":"58.4252778","longitude":"-135.7074167","precheck":"0"},{"code":"SAW","name":"Sawyer International","city":"Gwinn","state":"MI","latitude":"46.3536389","longitude":"-87.3953611","precheck":"0"},{"code":"HGR","name":"Hagerstown Regional","city":"Hagerstown","state":"MD","latitude":"39.707779","longitude":"-77.729446","precheck":"1"},{"code":"SUN","name":"Friedman Memorial","city":"Hailey","state":"ID","latitude":"43.5037789","longitude":"-114.2955528","precheck":"0"},{"code":"HRL","name":"Rio Grande Valley International","city":"Harlingen","state":"TX","latitude":"26.2285","longitude":"-97.6543889","precheck":"1"},{"code":"HRO","name":"Boone County","city":"Harrison","state":"AR","latitude":"36.26393","longitude":"-93.15089","precheck":"0"},{"code":"HVR","name":"Havre City-County","city":"Havre","state":"MT","latitude":"48.5429722","longitude":"-109.7623333","precheck":"1"},{"code":"HDN","name":"Yampa Valley","city":"Hayden","state":"CO","latitude":"40.4811667","longitude":"-107.2176667","precheck":"0"},{"code":"HYS","name":"Hays Regional","city":"Hays","state":"KS","latitude":"38.8422222","longitude":"-99.2731667","precheck":"0"},{"code":"CVG","name":"Cincinnati/Northern Kentucky International","city":"Hebron","state":"KY","latitude":"39.0488367","longitude":"-84.6678222","precheck":"1"},{"code":"HLN","name":"Helena Regional","city":"Helena","state":"MT","latitude":"46.6068056","longitude":"-111.98275","precheck":"0"},{"code":"HIB","name":"Chisholm-Hibbing Municipal","city":"Hibbing","state":"MN","latitude":"47.3865992","longitude":"-92.8389933","precheck":"0"},{"code":"XNA","name":"Northwest Arkansas Regional","city":"Highfill","state":"AR","latitude":"36.27547","longitude":"-94.29716","precheck":"1"},{"code":"ITO","name":"Hilo International","city":"Hilo","state":"HI","latitude":"19.720263","longitude":"-155.0484701","precheck":"1"},{"code":"HXD","name":"Hilton Head","city":"Hilton Head Island","state":"SC","latitude":"32.2243611","longitude":"-80.6974722","precheck":"0"},{"code":"HOB","name":"Lea County Regional","city":"Hobbs","state":"NM","latitude":"32.6875278","longitude":"-103.2170278","precheck":"0"},{"code":"HOM","name":"Homer","city":"Homer","state":"AK","latitude":"59.643565","longitude":"-151.492502","precheck":"0"},{"code":"HNL","name":"Honolulu International","city":"Honolulu","state":"HI","latitude":"21.3186813","longitude":"-157.9224287","precheck":"1"},{"code":"MKK","name":"Molokai","city":"Hoolehua","state":"HI","latitude":"21.1528858","longitude":"-157.0962561","precheck":"0"},{"code":"ELM","name":"Elmira-Corning Regional","city":"Horseheads","state":"NY","latitude":"42.1598889","longitude":"-76.8916111","precheck":"0"},{"code":"HOT","name":"Hot Springs Memorial Field","city":"Hot Springs","state":"AR","latitude":"34.4780278","longitude":"-93.0962222","precheck":"0"},{"code":"HOU","name":"William P. Hobby","city":"Houston","state":"TX","latitude":"29.65442","longitude":"-95.27653","precheck":"1"},{"code":"IAH","name":"George Bush Houston Intercontinental","city":"Houston","state":"TX","latitude":"29.9844336","longitude":"-95.3414422","precheck":"1"},{"code":"HTS","name":"Tri-State","city":"Huntington","state":"WV","latitude":"38.3666667","longitude":"-82.5580278","precheck":"1"},{"code":"HSV","name":"Huntsville International","city":"Huntsville","state":"AL","latitude":"34.6486","longitude":"-86.7751","precheck":"1"},{"code":"HON","name":"Huron Minicipal","city":"Huron","state":"SD","latitude":"44.3851944","longitude":"-98.2285556","precheck":"0"},{"code":"HYA","name":"Barnstable Municipal","city":"Hyannis","state":"MA","latitude":"41.6693364","longitude":"-70.2803558","precheck":"1"},{"code":"IDA","name":"Idaho Falls Municipal","city":"Idaho Falls","state":"ID","latitude":"43.5137222","longitude":"-112.07075","precheck":"1"},{"code":"IPL","name":"Imperial County","city":"Imperial","state":"CA","latitude":"32.8342194","longitude":"-115.5787444","precheck":"0"},{"code":"IND","name":"Indianapolis International","city":"Indianapolis","state":"IN","latitude":"39.714351","longitude":"-86.29847","precheck":"1"},{"code":"INL","name":"Falls International","city":"International Falls","state":"MN","latitude":"48.5655833","longitude":"-93.4021667","precheck":"0"},{"code":"IYK","name":"Indian Wells Valley","city":"Inyokern","state":"CA","latitude":"35.6587413","longitude":"-117.8295325","precheck":"0"},{"code":"IWD","name":"Gogebic County","city":"Ironwood","state":"MI","latitude":"46.5274747","longitude":"-90.1313967","precheck":"0"},{"code":"ITH","name":"Tompkins County","city":"Ithaca","state":"NY","latitude":"42.4913611","longitude":"-76.4587222","precheck":"0"},{"code":"JAC","name":"Jackson Hole","city":"Jackson","state":"WY","latitude":"43.60143","longitude":"-110.73566","precheck":"1"},{"code":"JAN","name":"Jackson International","city":"Jackson","state":"MS","latitude":"32.3111667","longitude":"-90.0758889","precheck":"0"},{"code":"MKL","name":"McKellar-Sipes Regional","city":"Jackson","state":"TN","latitude":"35.5998889","longitude":"-88.9156111","precheck":"0"},{"code":"JAX","name":"Jacksonville International","city":"Jacksonville","state":"FL","latitude":"30.4940556","longitude":"-81.6878611","precheck":"1"},{"code":"JHW","name":"Chautauqua County","city":"Jamestown","state":"NY","latitude":"42.1533889","longitude":"-79.2580278","precheck":"0"},{"code":"JMS","name":"Jamestown Municipal","city":"Jamestown","state":"ND","latitude":"46.9297222","longitude":"-98.6781944","precheck":"0"},{"code":"BGM","name":"Binghamton Regional","city":"Johnson City","state":"NY","latitude":"42.2085556","longitude":"-75.9797222","precheck":"0"},{"code":"JST","name":"Johnstown-Cambria County","city":"Johnstown","state":"PA","latitude":"40.3161111","longitude":"-78.8339444","precheck":"0"},{"code":"JBR","name":"Jonesboro Municipal","city":"Jonesboro","state":"AR","latitude":"35.8339","longitude":"-90.6497","precheck":"0"},{"code":"JLN","name":"Joplin Regional","city":"Joplin","state":"MO","latitude":"37.1572","longitude":"-94.5013","precheck":"0"},{"code":"JNU","name":"Juneau International","city":"Juneau","state":"AK","latitude":"58.3549722","longitude":"-134.5762778","precheck":"0"},{"code":"OGG","name":"Kahului","city":"Kahului, Maui","state":"HI","latitude":"20.8986497","longitude":"-156.4304579","precheck":"1"},{"code":"KOA","name":"Keahole","city":"Kailua-Kona","state":"HI","latitude":"19.7387658","longitude":"-156.0456314","precheck":"1"},{"code":"AZO","name":"Kalamazoo Municipal","city":"Kalamazoo","state":"MI","latitude":"42.2343889","longitude":"-85.5515556","precheck":"0"},{"code":"FCA","name":"Glacier Park International","city":"Kalispell","state":"MT","latitude":"48.308","longitude":"-114.2519","precheck":"1"},{"code":"GPI","name":"Glacier Park International","city":"Kalispell","state":"MT","latitude":"48.308","longitude":"-114.2519","precheck":"0"},{"code":"MCI","name":"Kansas City International","city":"Kansas City","state":"MO","latitude":"39.2975","longitude":"-94.7162","precheck":"1"},{"code":"JHM","name":"Kapalua","city":"Kapalua","state":"HI","latitude":"20.9629364","longitude":"-156.6730317","precheck":"0"},{"code":"EAR","name":"Kearney Minicipal","city":"Kearney","state":"NE","latitude":"40.7254","longitude":"-99.0133","precheck":"0"},{"code":"ENA","name":"Kenai Municipal","city":"Kenai","state":"AK","latitude":"60.5730543","longitude":"-151.2450027","precheck":"0"},{"code":"KTN","name":"Ketchikan International","city":"Ketchikan","state":"AK","latitude":"55.354075","longitude":"-131.7112194","precheck":"0"},{"code":"EYW","name":"Key West International","city":"Key West","state":"FL","latitude":"24.5561111","longitude":"-81.7595556","precheck":"0"},{"code":"GRK","name":"Killeen-Ft. Hood Regional","city":"Killeen","state":"TX","latitude":"31.06725","longitude":"-97.8289167","precheck":"1"},{"code":"CIU","name":"Chippewa County International","city":"Kincheloe","state":"MI","latitude":"46.25075","longitude":"-84.4723889","precheck":"0"},{"code":"AKN","name":"King Salmon","city":"King Salmon","state":"AK","latitude":"58.6764935","longitude":"-156.648691","precheck":"0"},{"code":"IGM","name":"Kingman","city":"Kingman","state":"AZ","latitude":"35.2594722","longitude":"-113.9380556","precheck":"0"},{"code":"IMT","name":"Ford","city":"Kingsford","state":"MI","latitude":"45.8183611","longitude":"-88.1145556","precheck":"0"},{"code":"ISO","name":"Kinston Regional Jetport","city":"Kinston","state":"NC","latitude":"35.3314444","longitude":"-77.6088333","precheck":"0"},{"code":"IRK","name":"Kirksville Regional","city":"Kirksville","state":"MO","latitude":"40.0932","longitude":"-92.5414","precheck":"1"},{"code":"LMT","name":"Kingsley Field","city":"Klamath Falls","state":"OR","latitude":"42.1561389","longitude":"-121.7331944","precheck":"0"},{"code":"ADQ","name":"Kodiak State","city":"Kodiak","state":"AK","latitude":"57.7499678","longitude":"-152.4938553","precheck":"0"},{"code":"OTZ","name":"Ralph Wien Memorial","city":"Kotzebue","state":"AK","latitude":"66.8846944","longitude":"-162.5985","precheck":"0"},{"code":"LSE","name":"Lacrosse Municipal","city":"La Crosse","state":"WI","latitude":"43.8792656","longitude":"-91.256638","precheck":"1"},{"code":"LFT","name":"Lafayette Regional","city":"Lafayette","state":"LA","latitude":"30.20525","longitude":"-91.9876111","precheck":"0"},{"code":"LCH","name":"Lake Charles Regional","city":"Lake Charles","state":"LA","latitude":"30.1260833","longitude":"-93.2234167","precheck":"0"},{"code":"LAL","name":"Lakeland Linder Regional Airport","city":"Lakeland","state":"FL","latitude":"27.988747","longitude":"-82.0211526","precheck":"0"},{"code":"LNY","name":"Lanai","city":"Lanai City","state":"HI","latitude":"20.7856111","longitude":"-156.9514181","precheck":"0"},{"code":"LAN","name":"Capital City","city":"Lansing","state":"MI","latitude":"42.7786683","longitude":"-84.5866866","precheck":"1"},{"code":"LAR","name":"Laramine Regional","city":"Laramie","state":"WY","latitude":"41.3120556","longitude":"-105.675","precheck":"0"},{"code":"LRD","name":"Laredo International","city":"Laredo","state":"TX","latitude":"27.5437994","longitude":"-99.4615326","precheck":"1"},{"code":"LAS","name":"McCarran International","city":"Las Vegas","state":"NV","latitude":"36.0800556","longitude":"-115.15225","precheck":"1"},{"code":"LBE","name":"Westmoreland County","city":"Latrobe","state":"PA","latitude":"40.2746111","longitude":"-79.40675","precheck":"0"},{"code":"LAW","name":"Lawton Municipal","city":"Lawton","state":"OK","latitude":"34.5677144","longitude":"-98.4166367","precheck":"1"},{"code":"BFD","name":"Bradford Regional","city":"Lewis Run","state":"PA","latitude":"41.8030678","longitude":"-78.6401208","precheck":"0"},{"code":"LWB","name":"Greenbrier Valley","city":"Lewisburg","state":"WV","latitude":"37.8583056","longitude":"-80.3994722","precheck":"0"},{"code":"LWS","name":"Lewiston - Nez Perce County","city":"Lewiston","state":"ID","latitude":"46.3745","longitude":"-117.0153889","precheck":"0"},{"code":"LWT","name":"Lewistown Municipal","city":"Lewistown","state":"MT","latitude":"47.04925","longitude":"-109.4666944","precheck":"0"},{"code":"LEX","name":"Blue Grass","city":"Lexington","state":"KY","latitude":"38.0365","longitude":"-84.6058889","precheck":"1"},{"code":"LBL","name":"Liberal Municipal","city":"Liberal","state":"KS","latitude":"37.0442222","longitude":"-100.9598611","precheck":"0"},{"code":"LIH","name":"Lihue","city":"Lihue","state":"HI","latitude":"21.975983","longitude":"-159.338958","precheck":"1"},{"code":"LNK","name":"Lincoln Municipal","city":"Lincoln","state":"NE","latitude":"40.84672","longitude":"-96.75526","precheck":"0"},{"code":"LNS","name":"Lancaster","city":"Lititz","state":"PA","latitude":"40.1223611","longitude":"-76.2943611","precheck":"0"},{"code":"LIT","name":"Bill and Hillary Clinton National ","city":"Little Rock","state":"AR","latitude":"34.72813","longitude":"-92.22044","precheck":"1"},{"code":"LGU","name":"Logan Cache","city":"Logan","state":"UT","latitude":"41.787731","longitude":"-111.852684","precheck":"0"},{"code":"LGB","name":"Long Beach Airport","city":"Long Beach","state":"CA","latitude":"33.8177222","longitude":"-118.1516111","precheck":"1"},{"code":"GGG","name":"Gregg County","city":"Longview","state":"TX","latitude":"32.3840144","longitude":"-94.7114867","precheck":"0"},{"code":"LAX","name":"Los Angeles International","city":"Los Angeles","state":"CA","latitude":"33.942452","longitude":"-118.40801","precheck":"1"},{"code":"SDF","name":"Louisville International","city":"Louisville","state":"KY","latitude":"38.1740858","longitude":"-85.7364989","precheck":"1"},{"code":"FNL","name":"Fort Collins-Loveland Municipal","city":"Loveland","state":"CO","latitude":"40.4518272","longitude":"-105.0113356","precheck":"0"},{"code":"LBB","name":"Lubbock International","city":"Lubbock","state":"TX","latitude":"33.6636389","longitude":"-101.8227778","precheck":"1"},{"code":"LYH","name":"Lynchburg Regional","city":"Lynchburg","state":"VA","latitude":"37.3253889","longitude":"-79.2004306","precheck":"0"},{"code":"MCN","name":"Middle Georgia Regional","city":"Macon","state":"GA","latitude":"32.69285","longitude":"-83.6492111","precheck":"0"},{"code":"MSN","name":"Dane County Regional","city":"Madison","state":"WI","latitude":"43.13622","longitude":"-89.3458","precheck":"1"},{"code":"MMH","name":"Mammoth Yosemite","city":"Mammoth Lakes","state":"CA","latitude":"37.62765","longitude":"-118.843688","precheck":"0"},{"code":"MHT","name":"Manchester","city":"Manchester","state":"NH","latitude":"42.9328043","longitude":"-71.4357391","precheck":"1"},{"code":"MHK","name":"Manhattan Regional","city":"Manhattan","state":"KS","latitude":"39.1409722","longitude":"-96.6708333","precheck":"0"},{"code":"MBL","name":"Manistee County Blacker","city":"Manistee","state":"MI","latitude":"44.2724722","longitude":"-86.2468889","precheck":"0"},{"code":"MWA","name":"Williamson County","city":"Marion","state":"IL","latitude":"37.7549722","longitude":"-89.0110833","precheck":"0"},{"code":"AOO","name":"Altoona-Blair County","city":"Martinsburg","state":"PA","latitude":"40.2963611","longitude":"-78.3200278","precheck":"0"},{"code":"BLV","name":"Mid-America","city":"Mascoutah","state":"IL","latitude":"38.5451667","longitude":"-89.8351944","precheck":"0"},{"code":"MCW","name":"Mason City Municipal","city":"Mason City","state":"IA","latitude":"43.1577925","longitude":"-93.3312606","precheck":"0"},{"code":"MSS","name":"Massena International","city":"Massena","state":"NY","latitude":"44.9358333","longitude":"-74.8455556","precheck":"1"},{"code":"MFE","name":"Miller International","city":"McAllen","state":"TX","latitude":"26.1758333","longitude":"-98.2386111","precheck":"1"},{"code":"MCK","name":"McCook Municipal","city":"McCook","state":"NE","latitude":"40.2062778","longitude":"-100.5920833","precheck":"0"},{"code":"ACV","name":"Arcata-Eureka","city":"McKinleyville","state":"CA","latitude":"40.9781111","longitude":"-124.1086111","precheck":"0"},{"code":"MFR","name":"Rogue Valley International-Medford","city":"Medford","state":"OR","latitude":"42.3742222","longitude":"-122.8735","precheck":"1"},{"code":"MLB","name":"Melbourne International","city":"Melbourne","state":"FL","latitude":"28.1027528","longitude":"-80.6452569","precheck":"0"},{"code":"MEM","name":"Memphis International","city":"Memphis","state":"TN","latitude":"35.0424167","longitude":"-89.9766667","precheck":"1"},{"code":"MCE","name":"Merced Municipal","city":"Merced","state":"CA","latitude":"37.28475","longitude":"-120.5139167","precheck":"0"},{"code":"MEI","name":"Key Field","city":"Meridian","state":"MS","latitude":"32.3326244","longitude":"-88.7518679","precheck":"1"},{"code":"IWA","name":"Phoenix-Mesa Gateway","city":"Mesa","state":"AZ","latitude":"33.3078333","longitude":"-111.6554722","precheck":"1"},{"code":"MIA","name":"Miami International","city":"Miami","state":"FL","latitude":"25.79498","longitude":"-80.27849","precheck":"1"},{"code":"MPB","name":"Miami Seaplane Base","city":"Miami","state":"FL","latitude":"25.7833583","longitude":"-80.1796066","precheck":"1"},{"code":"MDT","name":"Harrisburg International","city":"Middletown","state":"PA","latitude":"40.1934953","longitude":"-76.7634036","precheck":"1"},{"code":"MAF","name":"Midland International","city":"Midland","state":"TX","latitude":"31.9425278","longitude":"-102.2019139","precheck":"1"},{"code":"MLS","name":"Frank Wiley Field","city":"Miles City","state":"MT","latitude":"46.4279722","longitude":"-105.88625","precheck":"0"},{"code":"MKE","name":"General Mitchell International","city":"Milwaukee","state":"WI","latitude":"42.94769","longitude":"-87.902","precheck":"1"},{"code":"MSP","name":"Minneapolis-St. Paul International","city":"Minneapolis","state":"MN","latitude":"44.88105","longitude":"-93.20286","precheck":"1"},{"code":"MOT","name":"Minot International","city":"Minot","state":"ND","latitude":"48.2576389","longitude":"-101.2780278","precheck":"1"},{"code":"MSO","name":"Missoula International","city":"Missoula","state":"MT","latitude":"46.91926","longitude":"-114.0836","precheck":"0"},{"code":"CNY","name":"Canyonlands Field","city":"Moab","state":"UT","latitude":"38.7549561","longitude":"-109.7548439","precheck":"0"},{"code":"MOB","name":"Mobile Regional","city":"Mobile","state":"AL","latitude":"30.6813","longitude":"-88.2443","precheck":"1"},{"code":"MOD","name":"Modesto City County","city":"Modesto","state":"CA","latitude":"37.6258172","longitude":"-120.9544214","precheck":"0"},{"code":"MLI","name":"Quad City","city":"Moline","state":"IL","latitude":"41.4482856","longitude":"-90.5075201","precheck":"0"},{"code":"MLU","name":"Monroe Regional","city":"Monroe","state":"LA","latitude":"32.5108656","longitude":"-92.0376878","precheck":"0"},{"code":"MRY","name":"Monterey Peninsula","city":"Monterey","state":"CA","latitude":"36.587","longitude":"-121.8429444","precheck":"1"},{"code":"MGM","name":"Montgomery Regional","city":"Montgomery","state":"AL","latitude":"32.3054","longitude":"-86.3909","precheck":"0"},{"code":"IPT","name":"Williamsport Lycoming County","city":"Montoursville","state":"PA","latitude":"41.2418358","longitude":"-76.9210956","precheck":"0"},{"code":"MTJ","name":"Montrose County","city":"Montrose","state":"CO","latitude":"38.5097958","longitude":"-107.8942433","precheck":"1"},{"code":"MGW","name":"Morgantown Municipal","city":"Morgantown","state":"WV","latitude":"39.6429075","longitude":"-79.9163142","precheck":"0"},{"code":"PIB","name":"Pine-belt Regional","city":"Moselle","state":"MS","latitude":"31.4671389","longitude":"-89.3370556","precheck":"1"},{"code":"CWA","name":"Central Wisconsin Regional","city":"Mosinee","state":"WI","latitude":"44.7776237","longitude":"-89.666778","precheck":"1"},{"code":"MSL","name":"Muscle Shoals","city":"Muscle Shoals","state":"AL","latitude":"34.7456","longitude":"-87.6192","precheck":"0"},{"code":"MKG","name":"Muskegon County International","city":"Muskegon","state":"MI","latitude":"43.1676717","longitude":"-86.2354387","precheck":"0"},{"code":"MYR","name":"Myrtle Beach International","city":"Myrtle Beach","state":"SC","latitude":"33.67975","longitude":"-78.9283333","precheck":"1"},{"code":"ACK","name":"Nantucket Memorial","city":"Nantucket","state":"MA","latitude":"41.2530519","longitude":"-70.0601814","precheck":"1"},{"code":"APF","name":"Naples Municipal","city":"Naples","state":"FL","latitude":"26.1522874","longitude":"-81.7757933","precheck":"0"},{"code":"BNA","name":"Nashville International","city":"Nashville","state":"TN","latitude":"36.1244722","longitude":"-86.6781944","precheck":"1"},{"code":"EWN","name":"Coastal Carolina Regional","city":"New Bern","state":"NC","latitude":"35.0729722","longitude":"-77.0429444","precheck":"0"},{"code":"ILG","name":"New Castle Airport","city":"New Castle","state":"DE","latitude":"39.67861","longitude":"-75.60666","precheck":"0"},{"code":"HVN","name":"Tweed - New Haven","city":"New Haven","state":"CT","latitude":"41.26375","longitude":"-72.8868056","precheck":"0"},{"code":"MSY","name":"Louis Armstrong New Orleans International","city":"New Orleans","state":"LA","latitude":"29.9849","longitude":"-90.2568","precheck":"1"},{"code":"SWF","name":"Stewart","city":"New Windor","state":"NY","latitude":"41.5041111","longitude":"-74.1048333","precheck":"1"},{"code":"JFK","name":"John F. Kennedy International","city":"New York","state":"NY","latitude":"40.64432","longitude":"-73.78261","precheck":"1"},{"code":"LGA","name":"LaGuardia","city":"New York","state":"NY","latitude":"40.77725","longitude":"-73.8726111","precheck":"1"},{"code":"EWR","name":"Newark International","city":"Newark","state":"NJ","latitude":"40.69055","longitude":"-74.17761","precheck":"1"},{"code":"PHF","name":"Newport News/Williamsburg International","city":"Newport News","state":"VA","latitude":"37.1318889","longitude":"-76.4929722","precheck":"0"},{"code":"IAG","name":"Niagara Falls International","city":"Niagara Falls","state":"NY","latitude":"43.1073333","longitude":"-78.9461944","precheck":"1"},{"code":"OME","name":"Nome","city":"Nome","state":"AK","latitude":"64.5122022","longitude":"-165.4452458","precheck":"0"},{"code":"ORF","name":"Norfolk International ","city":"Norfolk","state":"VA","latitude":"36.8946111","longitude":"-76.2012222","precheck":"1"},{"code":"OTH","name":"North Bend Municipal","city":"North Bend","state":"OR","latitude":"43.4169444","longitude":"-124.2470278","precheck":"0"},{"code":"CAK","name":"Akron-Canton Regional","city":"North Canton","state":"OH","latitude":"40.9160833","longitude":"-81.4421944","precheck":"1"},{"code":"RUT","name":"Rutland State ","city":"North Clarendon","state":"VT","latitude":"43.5299069","longitude":"-72.949615","precheck":"1"},{"code":"LBF","name":"North Platte Regional","city":"North Platte","state":"NE","latitude":"41.1262222","longitude":"-100.6836667","precheck":"0"},{"code":"SYR","name":"Syracuse-Hancock International","city":"North Syracuse","state":"NY","latitude":"43.1111869","longitude":"-76.1063106","precheck":"1"},{"code":"OAK","name":"Oakland International","city":"Oakland","state":"CA","latitude":"37.7213056","longitude":"-122.2207222","precheck":"1"},{"code":"OCF","name":"Ocala International","city":"Ocala","state":"FL","latitude":"29.1725","longitude":"-82.224167","precheck":"0"},{"code":"OGD","name":"Ogden Hinckley","city":"Ogden","state":"UT","latitude":"41.193349","longitude":"-112.009138","precheck":"1"},{"code":"OGS","name":"Ogdensburg International","city":"Ogdensburg","state":"NY","latitude":"44.6818611","longitude":"-75.4655","precheck":"1"},{"code":"OKC","name":"Will Rogers World Airport","city":"Oklahoma City","state":"OK","latitude":"35.3930883","longitude":"-97.6007339","precheck":"1"},{"code":"OMA","name":"Eppley Airfield","city":"Omaha","state":"NE","latitude":"41.2997","longitude":"-95.8998","precheck":"1"},{"code":"ONT","name":"LA/Ontario International","city":"Ontario","state":"CA","latitude":"34.056","longitude":"-117.6011944","precheck":"1"},{"code":"RME","name":"Oneida County at Rome (Griffiss)","city":"Oriskany","state":"NY","latitude":"43.2338056","longitude":"-75.4070278","precheck":"0"},{"code":"MCO","name":"Orlando International","city":"Orlando","state":"FL","latitude":"28.431374","longitude":"-81.30839","precheck":"1"},{"code":"OWB","name":"Owensboro Davies County","city":"Owensboro","state":"KY","latitude":"37.7388342","longitude":"-87.1668286","precheck":"1"},{"code":"ANB","name":"Anniston Metropolitan","city":"Oxford","state":"AL","latitude":"33.5897","longitude":"-85.8525","precheck":"0"},{"code":"OXR","name":"Oxnard","city":"Oxnard","state":"CA","latitude":"34.2008056","longitude":"-119.2072222","precheck":"0"},{"code":"PGA","name":"Page Municipal","city":"Page","state":"AZ","latitude":"36.9260833","longitude":"-111.4483611","precheck":"0"},{"code":"PSP","name":"Palm Springs Regional","city":"Palm Springs","state":"CA","latitude":"33.8296667","longitude":"-116.5066944","precheck":"1"},{"code":"PMD","name":"Palmdale Regional","city":"Palmdale","state":"CA","latitude":"34.6293889","longitude":"-118.0845528","precheck":"0"},{"code":"PFN","name":"Panama City-Bay County International","city":"Panama City","state":"FL","latitude":"30.2120833","longitude":"-85.6828056","precheck":"0"},{"code":"ECP","name":"Northwest Florida Beaches International","city":"Panama City Beach","state":"FL","latitude":"30.357803","longitude":"-85.798923","precheck":"0"},{"code":"PKB","name":"Wood County","city":"Parkersburg","state":"WV","latitude":"39.3451039","longitude":"-81.4392031","precheck":"0"},{"code":"PSC","name":"Tri-Cities","city":"Pasco","state":"WA","latitude":"46.2646944","longitude":"-119.1190278","precheck":"1"},{"code":"PLN","name":"Pellston Regional","city":"Pellston","state":"MI","latitude":"45.5709167","longitude":"-84.7967222","precheck":"0"},{"code":"PDT","name":"Eastern Oregon Regional - Pendelton","city":"Pendelton","state":"OR","latitude":"45.6950556","longitude":"-118.8414444","precheck":"0"},{"code":"PNS","name":"Pensacola Regional","city":"Pensacola","state":"FL","latitude":"30.4734256","longitude":"-87.1866122","precheck":"1"},{"code":"PIA","name":"General Wayne A. Downing Peoria Intl.","city":"Peoria","state":"IL","latitude":"40.6642014","longitude":"-89.6932578","precheck":"1"},{"code":"PSG","name":"Petersburg","city":"Petersburg","state":"AK","latitude":"56.8016667","longitude":"-132.9452778","precheck":"0"},{"code":"PHL","name":"Philadelphia International","city":"Philadelphia","state":"PA","latitude":"39.8722494","longitude":"-75.2408658","precheck":"1"},{"code":"PHX","name":"Phoenix Sky Harbor International","city":"Phoenix","state":"AZ","latitude":"33.4347","longitude":"-112.0094","precheck":"1"},{"code":"PIR","name":"Pierre Regional","city":"Pierre","state":"SD","latitude":"44.3826944","longitude":"-100.2859722","precheck":"0"},{"code":"PIT","name":"Pittsburgh International","city":"Pittsburgh","state":"PA","latitude":"40.4914722","longitude":"-80.2328611","precheck":"1"},{"code":"PBG","name":"Plattsburg International","city":"Plattsburgh","state":"NY","latitude":"44.6509444","longitude":"-73.4681389","precheck":"1"},{"code":"PIH","name":"Pocatello Regional","city":"Pocatello","state":"ID","latitude":"42.9098056","longitude":"-112.5959167","precheck":"0"},{"code":"PSE","name":"Mercedita","city":"Ponce","state":"PR","latitude":"18.0083056","longitude":"-66.5630278","precheck":"0"},{"code":"PDX","name":"Portland International","city":"Portland","state":"OR","latitude":"45.5884557","longitude":"-122.5974516","precheck":"1"},{"code":"PWM","name":"Portland International Jetport","city":"Portland","state":"ME","latitude":"43.6461667","longitude":"-70.3092778","precheck":"1"},{"code":"PSM","name":"Portsmouth International at Pease","city":"Portsmouth","state":"NH","latitude":"43.0779444","longitude":"-70.8232778","precheck":"1"},{"code":"PRC","name":"Prescott Municipal","city":"Prescott","state":"AZ","latitude":"34.6544444","longitude":"-112.4196111","precheck":"0"},{"code":"PQI","name":"Northern Maine Regional","city":"Presque Isle","state":"ME","latitude":"46.6889722","longitude":"-68.0448056","precheck":"0"},{"code":"PVC","name":"Provincetown Minicipal","city":"Provincetown","state":"MA","latitude":"42.0719983","longitude":"-70.2213767","precheck":"1"},{"code":"PVU","name":"Provo Municipal","city":"Provo","state":"UT","latitude":"40.21935","longitude":"-111.71828","precheck":"1"},{"code":"SCC","name":"Deadhorse","city":"Prudhoe Bay","state":"AK","latitude":"70.19475","longitude":"-148.4651667","precheck":"0"},{"code":"PUB","name":"Pueblo Memorial","city":"Pueblo","state":"CO","latitude":"38.2891378","longitude":"-104.4965016","precheck":"0"},{"code":"PUW","name":"Pullman-Moscow Regional","city":"Pullman","state":"WA","latitude":"46.7438611","longitude":"-117.1095833","precheck":"0"},{"code":"UIN","name":"Quincy Municipal","city":"Quincy","state":"IL","latitude":"39.9430178","longitude":"-91.1944637","precheck":"0"},{"code":"RAP","name":"Rapid City Regional","city":"Rapid City","state":"SD","latitude":"44.0453333","longitude":"-103.0573611","precheck":"1"},{"code":"RDU","name":"Raleigh-Durham International","city":"RDU Airport","state":"NC","latitude":"35.8776389","longitude":"-78.7874722","precheck":"1"},{"code":"RDG","name":"Reading Regional","city":"Reading","state":"PA","latitude":"40.3785","longitude":"-75.96525","precheck":"0"},{"code":"RDD","name":"Redding Municipal","city":"Redding","state":"CA","latitude":"40.509","longitude":"-122.2933889","precheck":"0"},{"code":"RDM","name":"Roberts Field","city":"Redmond","state":"OR","latitude":"44.2540556","longitude":"-121.1499722","precheck":"0"},{"code":"RNO","name":"Reno/Tahoe International","city":"Reno","state":"NV","latitude":"39.4991111","longitude":"-119.7681111","precheck":"1"},{"code":"RHI","name":"Rhinelander-Oneida County","city":"Rhinelander","state":"WI","latitude":"45.6308997","longitude":"-89.4666282","precheck":"1"},{"code":"OAJ","name":"Albert J Ellis","city":"Richlands","state":"NC","latitude":"34.8291644","longitude":"-77.6121378","precheck":"0"},{"code":"RIW","name":"Riverton Regional","city":"Riverton","state":"WY","latitude":"43.064235","longitude":"-108.4598411","precheck":"0"},{"code":"ROA","name":"Roanoke Regional Woodrum Field","city":"Roanoke","state":"VA","latitude":"37.3254722","longitude":"-79.9754167","precheck":"1"},{"code":"ROC","name":"Rochester-Monroe County","city":"Rochester","state":"NY","latitude":"43.1188611","longitude":"-77.6723889","precheck":"1"},{"code":"RST","name":"Rochester International","city":"Rochester","state":"MN","latitude":"43.9082778","longitude":"-92.5000278","precheck":"0"},{"code":"RKS","name":"Rock Springs-Sweetwater County","city":"Rock Springs","state":"WY","latitude":"41.5942222","longitude":"-109.0651944","precheck":"0"},{"code":"RFD","name":"Greater Rockford","city":"Rockford","state":"IL","latitude":"42.1953611","longitude":"-89.0972222","precheck":"1"},{"code":"RKD","name":"Knox County Regional","city":"Rockland","state":"ME","latitude":"44.0600744","longitude":"-69.0992567","precheck":"1"},{"code":"ISP","name":"Long Island MacArthur","city":"Ronkonkoma, Town of Islip","state":"NY","latitude":"40.78918","longitude":"-73.09736","precheck":"1"},{"code":"ROW","name":"Roswell International Air Center","city":"Roswell","state":"NM","latitude":"33.30663","longitude":"-104.52208","precheck":"0"},{"code":"SMF","name":"Sacramento International","city":"Sacramento","state":"CA","latitude":"38.6954167","longitude":"-121.5907778","precheck":"1"},{"code":"SLE","name":"McNary Field","city":"Salem","state":"OR","latitude":"44.9095278","longitude":"-123.0025","precheck":"0"},{"code":"SLN","name":"Salina Municipal","city":"Salina","state":"KS","latitude":"38.7909664","longitude":"-97.6521697","precheck":"0"},{"code":"SBY","name":"Salisbury / Wicomico County Regional","city":"Salisbury","state":"MD","latitude":"38.3405261","longitude":"-75.5102881","precheck":"0"},{"code":"SLC","name":"Salt Lake City International","city":"Salt Lake City","state":"UT","latitude":"40.7861","longitude":"-111.98099","precheck":"1"},{"code":"SJT","name":"Mathis Field","city":"San Angelo","state":"TX","latitude":"31.35775","longitude":"-100.4963056","precheck":"1"},{"code":"SAT","name":"San Antonio International","city":"San Antonio","state":"TX","latitude":"29.5336944","longitude":"-98.4697778","precheck":"1"},{"code":"SAN","name":"San Diego International","city":"San Diego","state":"CA","latitude":"32.7335556","longitude":"-117.1896667","precheck":"1"},{"code":"SFO","name":"San Francisco International","city":"San Francisco","state":"CA","latitude":"37.61498","longitude":"-122.38971","precheck":"1"},{"code":"SJC","name":"San Jose International","city":"San Jose","state":"CA","latitude":"37.3626667","longitude":"-121.9291111","precheck":"1"},{"code":"SJU","name":"Luis Munoz Marin International","city":"San Juan","state":"PR","latitude":"18.4394167","longitude":"-66.0018333","precheck":"1"},{"code":"SBP","name":"San Luis Obispo County","city":"San Luis Obispo","state":"CA","latitude":"35.2372659","longitude":"-120.6425974","precheck":"0"},{"code":"RIC","name":"Richmond International","city":"Sandston","state":"VA","latitude":"37.50724","longitude":"-77.33349","precheck":"1"},{"code":"SFB","name":"Orlando Sanford","city":"Sanford","state":"FL","latitude":"28.776701","longitude":"-81.2355219","precheck":"1"},{"code":"SNA","name":"Orange County John Wayne","city":"Santa Ana","state":"CA","latitude":"33.6756667","longitude":"-117.8682222","precheck":"1"},{"code":"SBA","name":"Santa Barbara Municipal","city":"Santa Barbara","state":"CA","latitude":"34.4261944","longitude":"-119.8415","precheck":"1"},{"code":"SAF","name":"Santa Fe Municipal","city":"Santa Fe","state":"NM","latitude":"35.6171086","longitude":"-106.0894228","precheck":"0"},{"code":"SMX","name":"Santa Maria Public","city":"Santa Maria","state":"CA","latitude":"34.8989167","longitude":"-120.4574444","precheck":"1"},{"code":"STS","name":"Sonoma County/ Santa Rosa","city":"Santa Rosa","state":"CA","latitude":"38.508989","longitude":"-122.8128751","precheck":"0"},{"code":"SLK","name":"Adirondack Regional","city":"Saranac Lake","state":"NY","latitude":"44.3853056","longitude":"-74.2061944","precheck":"1"},{"code":"SRQ","name":"Sarasota-Bradenton","city":"Sarasota","state":"FL","latitude":"27.3954444","longitude":"-82.5543889","precheck":"1"},{"code":"SAV","name":"Savannah / Hilton Head International","city":"Savannah","state":"GA","latitude":"32.1275833","longitude":"-81.2021389","precheck":"1"},{"code":"CMI","name":"University Of Illinois-Willard","city":"Savoy","state":"IL","latitude":"40.0388333","longitude":"-88.2778056","precheck":"0"},{"code":"SEA","name":"Seattle-Tacoma International","city":"Seattle","state":"WA","latitude":"47.44354","longitude":"-122.30176","precheck":"1"},{"code":"SHR","name":"Sheridan County","city":"Sheridan","state":"WY","latitude":"44.7691944","longitude":"-106.9802778","precheck":"0"},{"code":"SOW","name":"Show Low Regional","city":"Show Low","state":"AZ","latitude":"34.2654722","longitude":"-110.0056667","precheck":"0"},{"code":"SHV","name":"Shreveport Regional","city":"Shreveport","state":"LA","latitude":"32.45464","longitude":"-93.82855","precheck":"1"},{"code":"SDY","name":"Sidney-Richland Regional","city":"Sidney","state":"MT","latitude":"47.7068611","longitude":"-104.1925556","precheck":"1"},{"code":"SUX","name":"Colonel Bud Day Field","city":"Sioux City","state":"IA","latitude":"42.4025","longitude":"-96.384167","precheck":"0"},{"code":"FSD","name":"Joe Foss Field","city":"Sioux Falls","state":"SD","latitude":"43.5954","longitude":"-96.7373","precheck":"1"},{"code":"SIT","name":"Sitka Municipal","city":"Sitka","state":"AK","latitude":"57.0471389","longitude":"-135.3616111","precheck":"0"},{"code":"MQY","name":"Smyrna","city":"Smyrna","state":"TN","latitude":"36.008978","longitude":"-86.520075","precheck":"0"},{"code":"SME","name":"Lake Cumberland Regional","city":"Somerset","state":"KY","latitude":"37.054722","longitude":"-84.614166","precheck":"0"},{"code":"SBN","name":"South Bend Regional","city":"South Bend","state":"IN","latitude":"41.7082222","longitude":"-86.3173333","precheck":"1"},{"code":"BTV","name":"Burlington International ","city":"South Burlington","state":"VT","latitude":"44.4718611","longitude":"-73.1532778","precheck":"1"},{"code":"GEG","name":"Spokane International","city":"Spokane","state":"WA","latitude":"47.6198611","longitude":"-117.5338333","precheck":"1"},{"code":"SGF","name":"Springfield-Branson National","city":"Springfield","state":"MO","latitude":"37.2385","longitude":"-93.3971","precheck":"1"},{"code":"SPI","name":"Abraham Lincoln Capital","city":"Springfield","state":"IL","latitude":"39.8442099","longitude":"-89.6780898","precheck":"0"},{"code":"STL","name":"Lambert St. Louis International","city":"St Louis","state":"MO","latitude":"38.743","longitude":"-90.3662","precheck":"1"},{"code":"STT","name":"Cyril E. King International","city":"St Thomas","state":"VI","latitude":"18.3373056","longitude":"-64.9733611","precheck":"1"},{"code":"SGJ","name":"St. Augustine","city":"St. Augustine","state":"FL","latitude":"29.95527","longitude":"-81.34312","precheck":"0"},{"code":"STC","name":"St. Cloud Regional","city":"St. Cloud","state":"MN","latitude":"45.5465556","longitude":"-94.0598889","precheck":"1"},{"code":"SGU","name":"St. George Municipal","city":"St. George","state":"UT","latitude":"37.0905833","longitude":"-113.5930556","precheck":"0"},{"code":"SCE","name":"State College Airport","city":"State College","state":"PA","latitude":"40.8492778","longitude":"-77.8486944","precheck":"0"},{"code":"SWO","name":"Stillwater Regional","city":"Stillwater","state":"OK","latitude":"36.161111","longitude":"-97.085556","precheck":"0"},{"code":"SCK","name":"Stockton Regional","city":"Stockton","state":"CA","latitude":"37.8941667","longitude":"-121.2383056","precheck":"1"},{"code":"TOL","name":"Toledo Express","city":"Swanton","state":"OH","latitude":"41.5868056","longitude":"-83.8078333","precheck":"1"},{"code":"PPG","name":"Pago Pago-American Samoa","city":"Tafuna","state":"AS","latitude":"-14.33166","longitude":"-170.7115031","precheck":"0"},{"code":"TLH","name":"Tallahassee Regional","city":"Tallahassee","state":"FL","latitude":"30.3965278","longitude":"-84.3503333","precheck":"0"},{"code":"TPA","name":"Tampa International","city":"Tampa","state":"FL","latitude":"27.9754722","longitude":"-82.53325","precheck":"1"},{"code":"TEX","name":"Telluride Regional","city":"Telluride","state":"CO","latitude":"37.9537586","longitude":"-107.90848","precheck":"0"},{"code":"TXK","name":"Texarkana Regional","city":"Texarkana","state":"AR","latitude":"33.4564","longitude":"-93.99417","precheck":"1"},{"code":"TVF","name":"Thief River Falls Regional","city":"Thief River Falls","state":"MN","latitude":"48.0656667","longitude":"-96.185","precheck":"0"},{"code":"FOE","name":"Forbes Field","city":"Topeka","state":"KS","latitude":"38.9509444","longitude":"-95.6636111","precheck":"0"},{"code":"TVC","name":"Cherry Capital","city":"Traverse City","state":"MI","latitude":"44.7416389","longitude":"-85.5823611","precheck":"1"},{"code":"BHB","name":"Hancock County","city":"Trenton","state":"ME","latitude":"44.4497689","longitude":"-68.3615653","precheck":"1"},{"code":"TUS","name":"Tucson International","city":"Tucson","state":"AZ","latitude":"32.12049","longitude":"-110.93715","precheck":"1"},{"code":"TUL","name":"Tulsa International","city":"Tulsa","state":"OK","latitude":"36.1983889","longitude":"-95.8881111","precheck":"1"},{"code":"UTA","name":"Tunica Municipal","city":"Tunica","state":"MS","latitude":"34.6850556","longitude":"-90.3477778","precheck":"0"},{"code":"TUP","name":"CD Lemons Municipal","city":"Tupelo","state":"MS","latitude":"34.2681083","longitude":"-88.769895","precheck":"0"},{"code":"GCN","name":"Grand Canyon National Park","city":"Tusayan","state":"AZ","latitude":"35.95939","longitude":"-112.13357","precheck":"0"},{"code":"TCL","name":"Tuscaloosa Regional","city":"Tuscaloosa","state":"AL","latitude":"33.2189","longitude":"-87.6064","precheck":"0"},{"code":"TWF","name":"Magic Valley Regional","city":"Twin Falls","state":"ID","latitude":"42.4818056","longitude":"-114.48775","precheck":"0"},{"code":"TYR","name":"Tyler Pounds Field","city":"Tyler","state":"TX","latitude":"32.3541389","longitude":"-95.4023861","precheck":"0"},{"code":"DUT","name":"Unalaska","city":"Unalaska","state":"AK","latitude":"53.89434","longitude":"-166.54231","precheck":"0"},{"code":"UNV","name":"University Park","city":"University Park","state":"PA","latitude":"40.8492778","longitude":"-77.8486944","precheck":"0"},{"code":"VDZ","name":"Valdez","city":"Valdez","state":"AK","latitude":"61.133889","longitude":"-146.248333","precheck":"0"},{"code":"VLD","name":"Valdosta Municipal","city":"Valdosta","state":"GA","latitude":"30.7813722","longitude":"-83.2762194","precheck":"0"},{"code":"VEL","name":"Vernal Regional","city":"Vernal","state":"UT","latitude":"40.4409167","longitude":"-109.5099167","precheck":"0"},{"code":"VCT","name":"Victoria Regional","city":"Victoria","state":"TX","latitude":"28.8525556","longitude":"-96.9184872","precheck":"0"},{"code":"YNG","name":"Youngstown-Warren Regional","city":"Vienna","state":"OH","latitude":"41.2607356","longitude":"-80.6790967","precheck":"0"},{"code":"VQS","name":"Antonio Rivera Rodriquez Airport","city":"Vieques","state":"PR","latitude":"18.134089","longitude":"-65.48803","precheck":"1"},{"code":"MVY","name":"Martha's Vineyard","city":"Vineyard Haven","state":"MA","latitude":"41.3930278","longitude":"-70.6143333","precheck":"1"},{"code":"VIS","name":"Visalia Municipal","city":"Visalia","state":"CA","latitude":"36.3186667","longitude":"-119.3928889","precheck":"0"},{"code":"ACT","name":"Waco Regional","city":"Waco","state":"TX","latitude":"31.6112883","longitude":"-97.2305192","precheck":"1"},{"code":"ALW","name":"Walla Walla Regional","city":"Walla Walla","state":"WA","latitude":"46.0947778","longitude":"-118.289","precheck":"0"},{"code":"PVD","name":"T F Green State","city":"Warwick","state":"RI","latitude":"41.7239992","longitude":"-71.4282211","precheck":"1"},{"code":"DCA","name":"Washington Reagan National ","city":"Washington","state":"DC","latitude":"38.849","longitude":"-77.04133","precheck":"1"},{"code":"IAD","name":"Washington-Dulles International","city":"Washington, DC","state":"VA","latitude":"38.95313","longitude":"-77.44743","precheck":"1"},{"code":"ALO","name":"Waterloo Municipal","city":"Waterloo","state":"IA","latitude":"42.5570814","longitude":"-92.4003436","precheck":"0"},{"code":"ATY","name":"Watertown Municipal","city":"Watertown","state":"SD","latitude":"44.9139722","longitude":"-97.1547222","precheck":"0"},{"code":"ENV","name":"Wendover Municipal","city":"Wendover","state":"UT","latitude":"40.7186944","longitude":"-114.0308889","precheck":"0"},{"code":"CAE","name":"Columbia Metropolitan","city":"West Columbia","state":"SC","latitude":"33.9388333","longitude":"-81.1195278","precheck":"1"},{"code":"LAF","name":"Purdue University","city":"West Lafayette","state":"IN","latitude":"40.412222","longitude":"-86.936944","precheck":"0"},{"code":"LEB","name":"Lebanon Municipal","city":"West Lebanon","state":"NH","latitude":"43.6261111","longitude":"-72.3041944","precheck":"1"},{"code":"PAH","name":"Barkley Regional","city":"West Paducah","state":"KY","latitude":"37.0602875","longitude":"-88.7729583","precheck":"0"},{"code":"PBI","name":"West Palm Beach International","city":"West Palm Beach","state":"FL","latitude":"26.6831606","longitude":"-80.0955892","precheck":"1"},{"code":"WYS","name":"West Yellowstone","city":"West Yellowstone","state":"MT","latitude":"44.6883889","longitude":"-111.1176389","precheck":"0"},{"code":"SHD","name":"Shenandoah Valley Regional","city":"Weyers Cave","state":"VA","latitude":"38.2638333","longitude":"-78.8964444","precheck":"0"},{"code":"HPN","name":"Westchester County","city":"White Plains","state":"NY","latitude":"41.0669444","longitude":"-73.7075556","precheck":"1"},{"code":"UCA","name":"Oneida County Airport","city":"Whitestown","state":"NY","latitude":"43.145","longitude":"-75.38388","precheck":"0"},{"code":"ICT","name":"Wichita Dwight D. Eisenhower National Airport","city":"Wichita","state":"KS","latitude":"37.6499444","longitude":"-97.4330556","precheck":"1"},{"code":"SPS","name":"Sheppard AFB/ Wichita Falls Municipal","city":"Wichita Falls","state":"TX","latitude":"33.9887961","longitude":"-98.4918933","precheck":"0"},{"code":"ISN","name":"Sloulin Field International","city":"Williston","state":"ND","latitude":"48.17673","longitude":"-103.63077","precheck":"0"},{"code":"ILM","name":"Wilmington International","city":"Wilmington","state":"NC","latitude":"34.2706667","longitude":"-77.9025","precheck":"1"},{"code":"BDL","name":"Bradley International","city":"Windsor Locks","state":"CT","latitude":"41.9388889","longitude":"-72.6832222","precheck":"1"},{"code":"OLF","name":"L. M. Clayton / Wolf Point","city":"Wolf Point","state":"MT","latitude":"48.0945178","longitude":"-105.5750536","precheck":"1"},{"code":"ORH","name":"Worcester Municipal","city":"Worcester","state":"MA","latitude":"42.267223","longitude":"-71.875832","precheck":"0"},{"code":"WRL","name":"Worland Municipal","city":"Worland","state":"WY","latitude":"43.9657131","longitude":"-107.9508308","precheck":"0"},{"code":"WRG","name":"Wrangell","city":"Wrangell","state":"AK","latitude":"56.4843333","longitude":"-132.3698333","precheck":"0"},{"code":"YKM","name":"Yakima Air Terminal","city":"Yakima","state":"WA","latitude":"46.571201","longitude":"-120.54101","precheck":"0"},{"code":"YAK","name":"Yakutat","city":"Yakutat","state":"AK","latitude":"59.5033056","longitude":"-139.66025","precheck":"0"},{"code":"YIP","name":"Willow Run","city":"Ypsilanti","state":"MI","latitude":"42.237928","longitude":"-83.530409","precheck":"0"},{"code":"NYL","name":"Yuma International","city":"Yuma","state":"AZ","latitude":"32.65639","longitude":"-114.61285","precheck":"0"}]}